City_ID,City,Lat,Lng,Max Temp,Humidity,Cloudiness,Wind Speed,Country,Date
0,san antonio de pale,-1.4014,5.6325,301.72,73,100,2.54,GQ,1682425352
1,port-aux-francais,-49.35,70.2167,277.51,73,41,7.61,TF,1682425352
2,borujen,31.9652,51.2873,290.18,28,94,7.88,IR,1682425352
3,las toscas,-28.3529,-59.258,289.38,90,15,1.99,AR,1682425352
4,laguna,38.421,-121.4238,286.47,86,0,3.09,US,1682425353
5,stanley,54.868,-1.6985,283.31,51,75,4.12,GB,1682425353
6,arraial do cabo,-22.9661,-42.0278,298.07,78,20,2.06,BR,1682425354
7,thompson,55.7435,-97.8558,268.24,68,20,1.54,CA,1682425354
8,college,64.8569,-147.8028,264.33,57,40,4.63,US,1682425354
9,yellowknife,62.456,-114.3525,273.46,93,75,5.66,CA,1682425252
10,caluula,11.9661,50.7569,302.03,68,60,5.3,SO,1682425355
11,ust-nera,64.5667,143.2,262.86,99,59,1.34,RU,1682425355
12,waitangi,-43.9535,-176.5597,287.49,83,93,5.81,NZ,1682425356
13,klyuchi,52.2667,79.1667,283.66,48,95,5.18,RU,1682425356
14,hawaiian paradise park,19.5933,-154.9731,294.28,89,100,2.57,US,1682425356
15,sarina,-21.4333,149.2167,296.08,79,10,5.99,AU,1682425356
16,bilibino,68.0546,166.4372,258.32,79,29,2.11,RU,1682425357
17,derzhavinsk,51.1,66.3167,293.93,25,0,4.87,KZ,1682425357
18,grytviken,-54.2811,-36.5092,275.67,98,87,2.44,GS,1682425357
19,aasiaat,68.7098,-52.8699,271.27,97,100,2.59,GL,1682425357
20,tual,-5.6667,132.75,301.87,72,50,0.11,ID,1682425357
21,canton,23.1167,113.25,291.97,68,80,5.66,CN,1682425136
22,fort bragg,35.139,-79.006,285.27,87,0,0.89,US,1682425357
23,puerto natales,-51.7236,-72.4875,278.4,75,20,4.63,CL,1682425358
24,arawa,-6.2132,155.5367,298.32,90,58,0.71,PG,1682425358
25,el hamma,33.8915,9.7963,305.77,17,5,5.51,TN,1682425358
26,saint-joseph,-21.3667,55.6167,299.52,82,74,1.48,RE,1682425358
27,udachny,66.4167,112.4,267.59,90,100,6.37,RU,1682425358
28,portland,45.5234,-122.6762,280.35,90,40,0.45,US,1682425125
29,buon ma thuot,12.6667,108.05,298.89,62,36,4.97,VN,1682425359
30,spring creek,40.7266,-115.5859,271.98,68,4,1.91,US,1682425359
31,howard springs,-12.497,131.047,301.1,81,99,2.23,AU,1682425359
32,qaqortoq,60.7167,-46.0333,274.53,89,98,0.99,GL,1682425360
33,puente nacional,5.8774,-73.6781,290.22,91,88,0.58,CO,1682425360
34,oebisfelde,52.4333,10.9833,283.24,57,81,6.95,DE,1682425360
35,ilha de mocambique,-15.0342,40.7358,301.35,64,18,7.85,MZ,1682425360
36,edinburgh of the seven seas,-37.0676,-12.3116,288.78,75,65,11.01,SH,1682425360
37,adamstown,-25.066,-130.1015,298.47,88,77,5.68,PN,1682425360
38,saraktash,51.7866,51.7866,291.6,42,100,7.2,RU,1682425360
39,saint-philippe,-21.3585,55.7679,299.92,81,82,0.67,RE,1682425361
40,menongue,-14.6585,17.691,303.94,28,76,3.27,AO,1682425361
41,jamestown,42.097,-79.2353,277.92,93,100,2.06,US,1682425361
42,hamilton,39.1834,-84.5333,279.12,77,40,3.09,US,1682425361
43,pimenta bueno,-11.6725,-61.1936,296.46,95,71,0.91,BR,1682425361
44,el galpon,-25.3807,-64.6526,288.52,87,5,0.9,AR,1682425361
45,gizo,-8.103,156.8419,301.38,74,87,1.92,SB,1682425362
46,berezovo,63.9381,65.0419,274.34,88,100,3.32,RU,1682425362
47,kristiansund,63.1115,7.732,278.18,87,100,3.6,NO,1682425362
48,georgetown,5.4112,100.3354,303.12,79,40,3.09,MY,1682425234
49,utrik,11.2278,169.8474,300.36,78,100,8.69,MH,1682425362
50,isafjordur,66.0755,-23.124,273.17,55,40,7.72,IS,1682425362
51,nouadhibou,20.931,-17.0347,296.14,68,1,5.66,MR,1682425362
52,urangan,-25.3,152.9,295.32,67,61,9.05,AU,1682425363
53,bethel,41.3712,-73.414,282.05,69,0,0.89,US,1682425092
54,petropavlovsk-kamchatsky,53.0452,158.6483,274.48,60,75,3.0,RU,1682425363
55,jayapura,-2.5333,140.7,300.81,89,99,2.59,ID,1682425363
56,mount pearl,47.5166,-52.7813,275.35,96,100,8.23,CA,1682425363
57,hadibu,12.65,54.0333,302.81,60,80,1.7,YE,1682425363
58,qal'ah-ye shahr,35.5473,65.5676,291.15,32,69,4.61,AF,1682425364
59,belyy yar,53.6039,91.3903,276.09,28,0,8.0,RU,1682425364
60,piggotts,17.1167,-61.8,301.64,69,40,2.57,AG,1682425364
61,invercargill,-46.4,168.35,281.78,80,100,7.85,NZ,1682425365
62,mossel bay,-34.1831,22.146,293.11,68,63,3.16,ZA,1682425365
63,ushuaia,-54.8,-68.3,277.96,81,75,11.32,AR,1682425365
64,chita,52.0333,113.55,281.09,16,40,1.0,RU,1682425365
65,dwarka,22.2394,68.9678,301.49,71,100,9.38,IN,1682425365
66,albany,42.6001,-73.9662,279.06,76,18,2.03,US,1682425366
67,san patricio,28.017,-97.5169,296.07,92,81,2.84,US,1682425366
68,saldanha,-33.0117,17.9442,295.18,70,0,4.01,ZA,1682425366
69,rabigh,22.7986,39.0349,303.77,49,12,6.58,SA,1682425367
70,kenai,60.5544,-151.2583,273.2,71,100,2.06,US,1682425367
71,afaahiti,-17.75,-149.2833,298.08,85,93,6.72,PF,1682425367
72,kapa'a,22.0752,-159.319,295.14,85,75,3.6,US,1682425367
73,sarankhola,22.3082,89.7897,305.39,41,51,2.91,BD,1682425367
74,roxas,11.5853,122.7511,299.34,75,30,1.83,PH,1682425368
75,olonkinbyen,70.9221,-8.7187,269.68,73,90,6.62,SJ,1682425368
76,margaret river,-33.95,115.0667,287.61,80,100,10.05,AU,1682425368
77,kapuskasing,49.4169,-82.4331,270.2,93,100,5.14,CA,1682425368
78,badger,64.8,-147.5333,264.29,59,40,4.63,US,1682425368
79,port mathurin,-19.6833,63.4167,299.45,79,37,7.72,MU,1682425368
80,kone,-21.0595,164.8658,295.82,87,99,1.95,NC,1682425369
81,mitchell,43.7094,-98.0298,274.88,72,0,2.57,US,1682425369
82,tiffin,41.1145,-83.178,277.78,76,21,2.4,US,1682425369
83,klaksvik,62.2266,-6.589,275.66,62,100,8.81,FO,1682425369
84,carnarvon,-24.8667,113.6333,292.95,54,8,7.71,AU,1682425369
85,tsiombe,-25.3,45.4833,298.93,54,38,4.94,MG,1682425369
86,richards bay,-28.783,32.0377,299.28,70,83,4.55,ZA,1682425370
87,nagqu,31.5,92.0,270.29,79,100,2.31,CN,1682425370
88,gaspe,48.8334,-64.4819,275.1,100,75,1.54,CA,1682425145
89,greymouth,-42.4667,171.2,287.52,91,94,8.53,NZ,1682425370
90,manokwari,-0.8667,134.0833,300.0,82,49,0.97,ID,1682425313
91,whitehorse,60.7161,-135.0538,269.58,79,20,2.06,CA,1682425196
92,el abiodh sidi cheikh,32.893,0.5484,300.59,19,0,2.13,DZ,1682425370
93,ararangua,-28.9347,-49.4858,292.4,77,12,1.56,BR,1682425371
94,ofunato,39.0717,141.7167,281.23,66,100,1.71,JP,1682425371
95,vadso,70.0744,29.7487,275.24,64,40,11.83,NO,1682425188
96,afantou,36.2935,28.1623,293.99,56,0,3.09,GR,1682425371
97,griffith,41.5284,-87.4237,279.41,85,100,2.57,US,1682425371
98,ribeira grande,38.5167,-28.7,292.37,82,20,4.92,PT,1682425371
99,nova sintra,14.8667,-24.7167,293.19,76,0,7.85,CV,1682425371
100,anadyr,64.75,177.4833,261.43,72,0,4.0,RU,1682425371
101,harpanahalli,14.8,75.9833,304.8,36,29,8.84,IN,1682425372
102,ilulissat,69.2167,-51.1,274.16,75,75,2.57,GL,1682425372
103,uliastay,47.7417,96.8444,281.59,29,96,7.13,MN,1682425372
104,lebu,-37.6167,-73.65,283.83,83,96,1.39,CL,1682425372
105,rikaze,29.25,88.8833,284.67,13,97,3.25,CN,1682425373
106,flin flon,54.7682,-101.865,271.06,64,40,2.06,CA,1682425373
107,blackmans bay,-43.0167,147.3167,287.33,75,0,2.77,AU,1682425373
108,st. john's,47.5649,-52.7093,275.81,96,100,8.94,CA,1682425112
109,tazovsky,67.4667,78.7,270.95,87,99,6.01,RU,1682425373
110,bechar,31.6167,-2.2167,303.38,17,2,2.87,DZ,1682425374
111,dudinka,69.4058,86.1778,275.72,91,98,3.1,RU,1682425374
112,papatowai,-46.5619,169.4708,283.5,80,95,9.02,NZ,1682425374
113,pisco,-13.7,-76.2167,293.18,88,46,0.51,PE,1682425125
114,nadym,65.5333,72.5167,273.27,85,90,2.51,RU,1682425374
115,kiruna,67.8557,20.2251,274.66,32,0,3.6,SE,1682425374
116,shache,38.4167,77.2406,299.89,11,25,0.93,CN,1682425374
117,saipan,15.1355,145.701,300.54,100,40,7.72,MP,1682425375
118,karaj,35.8355,51.0103,297.44,27,100,6.17,IR,1682425375
119,iskateley,67.6803,53.1512,272.88,87,10,6.52,RU,1682425375
120,vernon,50.2581,-119.2691,278.57,70,82,1.54,CA,1682425296
121,bilaspur,22.0833,82.15,308.67,20,79,2.12,IN,1682425375
122,wailua homesteads,22.0669,-159.378,294.39,85,75,3.6,US,1682425375
123,west island,-12.1568,96.8225,300.14,78,75,7.72,CC,1682425376
124,mugia,43.1041,-9.2179,291.99,92,99,7.48,ES,1682425376
125,fale old settlement,-9.3852,-171.2468,301.96,77,62,4.21,TK,1682425376
126,kaihua,23.3687,104.28,288.25,75,67,2.46,CN,1682425376
127,yarkovo,57.4028,67.0786,293.72,33,3,4.82,RU,1682425376
128,tiksi,71.6872,128.8694,262.18,99,99,2.37,RU,1682425376
129,princeville,45.7668,-61.2985,279.77,80,100,2.06,CA,1682425377
130,tank,32.2217,70.3793,308.64,11,60,1.52,PK,1682425377
131,prince rupert,54.3161,-130.3201,278.98,96,100,2.06,CA,1682425185
132,akjoujt,19.6969,-14.4164,310.54,9,1,5.16,MR,1682425377
133,lucas,41.6501,-83.6666,277.44,79,100,1.54,US,1682425377
134,longyearbyen,78.2186,15.6401,268.06,68,0,1.03,SJ,1682425378
135,suva,-18.1416,178.4415,296.86,94,75,0.0,FJ,1682425378
136,puerto ayora,-0.7393,-90.3518,295.68,98,3,1.95,EC,1682425378
137,baikonur,45.6167,63.3167,297.46,14,8,9.91,KZ,1682425378
138,timimoun,29.2639,0.231,306.47,11,1,1.37,DZ,1682425378
139,stettler,52.3168,-112.7186,276.9,80,63,2.38,CA,1682425378
140,kodiak,57.79,-152.4072,273.88,86,100,0.0,US,1682425378
141,al ghayzah,16.2079,52.176,304.02,59,42,7.7,YE,1682425378
142,emerald,-23.5333,148.1667,292.23,65,51,5.36,AU,1682425379
143,gadzhiyevo,69.2551,33.3362,273.33,69,2,9.66,RU,1682425379
144,punta cardon,11.6581,-70.215,298.98,77,8,4.45,VE,1682425379
145,owerri,5.4833,7.0304,307.46,48,94,1.88,NG,1682425379
146,ebon,4.582,168.6964,300.41,79,100,5.63,MH,1682425379
147,punta arenas,-53.15,-70.9167,278.21,81,20,10.29,CL,1682425379
148,uturoa,-16.7333,-151.4333,300.03,82,77,4.87,PF,1682425379
149,agar,23.7,76.0167,307.55,12,5,4.17,IN,1682425380
150,ancud,-41.8697,-73.8203,284.98,96,100,4.02,CL,1682425380
151,weno,7.4515,151.8468,299.12,94,100,1.54,FM,1682425380
152,nago,26.5881,127.9761,295.62,89,73,3.28,JP,1682425380
153,shinkafi,13.0753,6.5105,312.86,16,26,4.05,NG,1682425380
154,at taj,24.2049,23.2857,308.75,10,9,6.92,LY,1682425380
155,thai nguyen,21.5928,105.8442,294.03,80,100,1.54,VN,1682425381
156,san fernando de apure,7.8878,-67.4724,297.69,88,100,2.47,VE,1682425381
157,lihue,21.9789,-159.3672,294.73,86,75,3.6,US,1682425381
158,cidreira,-30.1811,-50.2056,294.52,76,5,6.11,BR,1682425381
159,talnakh,69.4865,88.3972,275.49,88,36,2.61,RU,1682425381
160,villa elisa,-25.3667,-57.6167,292.06,100,75,2.57,PY,1682425381
161,awjilah,29.1081,21.2869,304.24,15,7,4.93,LY,1682425381
162,saynshand,44.8824,110.1163,281.68,16,44,6.51,MN,1682425381
163,ust-tsilma,65.441,52.1498,273.85,100,89,1.37,RU,1682425382
164,colonia,50.9333,6.95,285.27,53,40,4.63,DE,1682425317
165,port saint john's,-31.6229,29.5448,295.72,86,96,1.99,ZA,1682425382
166,touros,-5.1989,-35.4608,301.58,74,24,5.08,BR,1682425382
167,sola,-13.8833,167.55,300.5,76,30,5.14,VU,1682425382
168,vorgashor,67.5833,63.95,268.38,90,38,3.46,RU,1682425382
169,kavaratti,10.5669,72.642,301.42,67,77,3.77,IN,1682425383
170,bredasdorp,-34.5322,20.0403,294.15,52,90,0.8,ZA,1682425383
171,lorengau,-2.0226,147.2712,301.29,78,93,3.33,PG,1682425383
172,ulverstone,-41.15,146.1667,287.16,96,54,2.41,AU,1682425383
173,al quwayrah,29.8004,35.3116,298.15,16,0,5.33,JO,1682425383
174,enewetak,11.3474,162.3373,299.17,84,100,6.37,MH,1682425383
175,cidade velha,14.9167,-23.6167,299.41,57,20,8.75,CV,1682425384
176,naze,28.3667,129.4833,294.66,88,65,5.19,JP,1682425384
177,isfana,39.8386,69.5306,294.46,40,7,2.73,KG,1682425384
178,korla,41.7597,86.1469,296.31,15,71,1.08,CN,1682425385
179,gvardeysk,54.6477,21.0651,281.18,91,100,4.39,RU,1682425385
180,rio verde de mato grosso,-18.9181,-54.8442,297.55,78,53,2.71,BR,1682425385
181,namibe,-15.1961,12.1522,300.17,61,20,3.74,AO,1682425385
182,atafu village,-8.5421,-172.5159,301.83,76,73,3.77,TK,1682425385
183,al bawiti,28.3492,28.8659,304.53,15,49,2.98,EG,1682425385
184,ibirataia,-14.0669,-39.6406,297.35,75,100,1.16,BR,1682425385
185,cuenca,-2.8833,-78.9833,286.22,100,100,1.03,EC,1682425149
186,shorewood,41.52,-88.2017,280.42,89,100,3.6,US,1682425205
187,bardai,11.65,7.2333,310.81,14,84,3.01,NG,1682425386
188,keflavik,64.0049,-22.5624,279.1,52,40,4.63,IS,1682425386
189,colares,38.7992,-9.4469,299.44,68,0,7.15,PT,1682425386
190,mul,20.0667,79.6667,297.44,70,100,1.21,IN,1682425386
191,china,25.7,-99.2333,291.71,82,92,1.69,MX,1682425387
192,raja,8.4596,25.678,313.21,20,14,2.28,SS,1682425387
193,lompoc,34.6391,-120.4579,283.44,81,100,8.49,US,1682425387
194,hithadhoo,-0.6,73.0833,301.82,74,100,4.07,MV,1682425387
195,broken hill,-31.95,141.4333,293.24,43,79,4.64,AU,1682425174
196,nar'yan-mar,67.6713,53.087,272.93,88,11,6.55,RU,1682425388
197,cockburn town,21.4612,-71.1419,298.25,74,87,3.46,TC,1682425388
198,port alfred,-33.5906,26.891,295.47,80,90,1.79,ZA,1682425388
199,okhotsk,59.3833,143.3,270.75,94,97,2.76,RU,1682425388
200,margate,51.3813,1.3862,283.65,62,9,0.45,GB,1682425109
201,codrington,-38.2667,141.9667,290.07,63,98,3.4,AU,1682425389
202,louis trichardt,-23.0439,29.9032,305.66,19,0,2.06,ZA,1682425389
203,gaalkacyo,6.7697,47.4308,309.26,29,73,2.29,SO,1682425389
204,saint-pierre,-21.3393,55.4781,300.13,74,75,3.09,RE,1682425389
205,kolonia town,6.964,158.206,300.46,79,100,6.3,FM,1682425389
206,omutninsk,58.67,52.1932,293.14,31,23,4.83,RU,1682425389
207,bel ombre,-4.6167,55.4167,304.06,74,40,5.66,SC,1682425390
208,coahuayana de hidalgo,18.7,-103.6583,293.9,88,86,1.21,MX,1682425391
209,chonchi,-42.6128,-73.8092,284.71,99,100,0.23,CL,1682425391
210,nyagan,62.1406,65.3936,277.43,100,100,4.12,RU,1682425391
211,shihezi,44.3,86.0333,286.86,66,100,4.91,CN,1682425391
212,podgorenskiy,50.405,39.6429,285.0,93,100,0.61,RU,1682425391
213,ponta delgada,37.7333,-25.6667,290.55,100,75,4.63,PT,1682425392
214,nova vicosa,-17.8919,-39.3719,298.57,81,36,2.64,BR,1682425392
215,skowhegan,44.7651,-69.7192,279.46,99,100,2.05,US,1682425208
216,knyaze-volkonskoye,48.4642,135.4567,282.34,55,100,9.83,RU,1682425392
217,general conesa,-40.1,-64.4333,289.11,53,3,4.72,AR,1682425392
218,puerto colombia,10.9878,-74.9547,300.2,79,27,6.87,CO,1682425392
219,port isabel,26.0734,-97.2086,295.38,95,20,3.13,US,1682425028
220,tuy hoa,13.0833,109.3,298.63,90,37,2.77,VN,1682425393
221,senanga,-16.1167,23.2667,306.85,23,6,2.99,ZM,1682425393
222,guerrero negro,27.9769,-114.0611,288.72,74,81,4.69,MX,1682425393
223,iranshahr,27.2025,60.6848,304.34,23,40,6.17,IR,1682425393
224,dronero,44.4657,7.3513,292.09,30,76,2.31,IT,1682425393
225,celestun,20.8667,-90.4,297.02,75,19,2.12,MX,1682425393
226,port elizabeth,-33.918,25.5701,295.43,72,0,3.09,ZA,1682425394
227,walvis bay,-22.9575,14.5053,304.68,40,0,4.63,NA,1682425394
228,balboa,2.0396,-77.2168,289.21,92,81,0.6,CO,1682425394
229,remire-montjoly,4.9167,-52.2667,297.17,100,100,1.03,GF,1682425394
230,tottori,35.5,134.2333,289.19,82,75,7.2,JP,1682425394
231,savanna-la-mar,18.219,-78.1332,299.78,81,43,1.26,JM,1682425394
232,sijunjung,-0.6876,100.9537,297.6,94,84,0.76,ID,1682425395
233,christchurch,-43.5333,172.6333,290.26,56,84,3.09,NZ,1682425326
234,nampula,-15.1165,39.2666,301.12,54,40,5.66,MZ,1682425395
235,puerto baquerizo moreno,-0.9,-89.6,298.3,80,2,2.82,EC,1682425395
236,patacamaya,-17.2333,-67.9167,278.32,72,11,2.64,BO,1682425395
237,brookings,44.3114,-96.7984,272.69,78,0,2.57,US,1682425395
238,aginskoye,51.1,114.53,280.32,19,97,2.6,RU,1682425395
239,baturaden,-7.3,109.2167,293.48,94,100,0.69,ID,1682425396
240,guane,22.2025,-84.0875,297.36,75,9,1.1,CU,1682425396
241,sovetskaya gavan',48.9723,140.2878,275.32,74,100,3.62,RU,1682425396
242,khandyga,62.6667,135.6,267.66,97,98,0.91,RU,1682425396
243,fortuna,40.5982,-124.1573,282.55,90,94,0.89,US,1682425396
244,xining,36.6167,101.7667,287.3,10,1,1.82,CN,1682425397
245,robore,-18.3333,-59.75,294.77,91,62,0.96,BO,1682425397
246,aykhal,66.0,111.5,267.17,94,100,5.15,RU,1682425397
247,tarata,-17.6167,-66.0167,286.83,66,26,1.49,BO,1682425397
248,ola,59.5833,151.2833,274.9,83,100,6.61,RU,1682425397
249,igarka,67.4667,86.5833,274.27,99,100,2.07,RU,1682425397
250,vilyuchinsk,52.9306,158.4028,275.3,80,32,4.33,RU,1682425397
251,smirnykh,49.75,142.8333,274.36,54,59,1.28,RU,1682425398
252,villa luvianos,18.9167,-100.4,290.01,36,76,1.3,MX,1682425398
253,porto novo,6.4965,2.6036,306.51,52,61,4.06,BJ,1682425398
254,worland,44.0169,-107.9554,282.79,68,100,3.09,US,1682425359
255,cibolo,29.5616,-98.227,291.29,91,100,3.09,US,1682425398
256,flying fish cove,-10.4217,105.6791,300.23,78,41,4.45,CX,1682425399
257,rongelap,11.1635,166.8941,298.8,86,100,5.98,MH,1682425399
258,vila franca do campo,37.7167,-25.4333,290.38,94,97,4.39,PT,1682425399
259,oyotun,-6.8519,-79.3036,298.08,80,100,0.58,PE,1682425399
260,prieska,-29.6641,22.7474,299.99,29,1,0.56,ZA,1682425400
261,dashtobod,40.1269,68.4944,300.48,23,0,2.91,UZ,1682425400
262,fredericton,45.9454,-66.6656,278.61,93,100,3.09,CA,1682425196
263,usogorsk,63.4106,48.6872,275.99,95,100,1.59,RU,1682425400
264,turtas,58.9417,69.1325,292.4,38,65,5.41,RU,1682425400
265,esfarayen,37.0765,57.5101,302.96,17,66,7.38,IR,1682425401
266,avarua,-21.2078,-159.775,299.18,78,20,5.14,CK,1682425349
267,borovskoy,53.8,64.15,295.46,20,0,5.55,KZ,1682425401
268,grootfontein,-19.5667,18.1167,300.91,39,20,3.09,NA,1682425401
269,terra nova,-12.3667,-40.6667,297.57,56,8,2.74,BR,1682425401
270,merizo village,13.2658,144.6691,301.46,92,26,6.83,GU,1682425402
271,barakani,-12.1356,44.4317,301.43,69,66,5.32,KM,1682425402
272,corner brook,48.9667,-57.9484,275.24,81,100,2.49,CA,1682425313
273,ketchikan,55.3422,-131.6461,276.14,93,100,2.06,US,1682425402
274,necochea,-38.5473,-58.7368,288.03,80,62,2.79,AR,1682425402
275,queenstown,-31.8976,26.8753,298.98,27,37,4.87,ZA,1682425402
276,sala,34.0389,-6.8166,306.84,61,5,3.09,MA,1682425402
277,hirara,24.8,125.2833,296.07,88,100,7.2,JP,1682425403
278,grand falls-windsor,48.9332,-55.6649,273.99,91,90,1.34,CA,1682425401
279,cape canaveral,28.4058,-80.6048,298.14,76,75,6.17,US,1682425403
280,tol'yatti,53.5303,49.3461,284.04,87,100,7.21,RU,1682425403
281,sittwe,20.15,92.9,302.61,71,45,6.64,MM,1682425403
282,alice springs,-23.7,133.8833,290.9,63,10,4.17,AU,1682425403
283,makurdi,7.7411,8.5121,312.53,31,99,0.59,NG,1682425403
284,nkowakowa,-23.8878,30.2871,308.19,20,3,2.32,ZA,1682425404
285,villa bruzual,9.3328,-69.1208,298.39,76,94,1.65,VE,1682425404
286,cacoal,-11.4386,-61.4472,296.49,94,68,1.01,BR,1682425207
287,port douglas,-16.4833,145.4667,297.9,83,84,8.45,AU,1682425404
288,maplewood,44.953,-92.9952,274.08,65,0,3.09,US,1682425404
289,bima,-8.4667,118.7167,298.35,94,84,1.72,ID,1682425404
290,miri,4.4148,114.0089,301.23,89,40,0.0,MY,1682425405
291,chipata,-13.6333,32.65,299.37,44,35,2.8,ZM,1682425405
292,sundarnagar,31.5333,76.8833,299.28,28,33,2.39,IN,1682425405
293,goundi,9.3627,17.366,313.43,21,98,1.67,TD,1682425405
294,ayabaca,-4.6398,-79.7149,281.94,95,100,2.44,PE,1682425405
295,luanda,-8.8368,13.2343,301.96,74,93,3.91,AO,1682425405
296,mount gambier,-37.8333,140.7667,289.23,65,100,2.44,AU,1682425406
297,changqing,36.5575,116.7272,287.86,58,23,2.41,CN,1682425406
298,manuguru,17.981,80.7547,305.7,48,60,1.26,IN,1682425406
299,rio preto da eva,-2.6994,-59.6997,299.14,83,30,1.08,BR,1682425406
300,yuzhno-kurilsk,44.0306,145.8556,277.3,62,79,2.66,RU,1682425406
301,hanceville,34.0607,-86.7675,282.83,68,83,2.21,US,1682425406
302,saint augustine beach,29.8505,-81.2654,295.4,83,40,3.09,US,1682425407
303,djibouti,11.5,42.5,304.58,48,9,6.02,DJ,1682425407
304,pagouda,9.7525,1.3278,305.44,33,52,1.42,TG,1682425407
305,acapulco de juarez,16.8634,-99.8901,297.05,88,75,1.03,MX,1682425407
306,murree,33.9073,73.393,293.29,25,32,2.15,PK,1682425407
307,mar del plata,-38.0023,-57.5575,292.09,98,100,1.03,AR,1682425363
308,viedma,-40.8135,-62.9967,288.85,57,1,4.98,AR,1682425226
309,tofol,5.3248,163.0078,300.9,79,100,8.01,FM,1682425408
310,nykvarn,59.8,18.3,281.97,74,100,2.49,SE,1682425408
311,kailua-kona,19.6406,-155.9956,297.13,79,75,2.24,US,1682425408
312,kuna,43.4918,-116.4201,276.95,81,0,5.66,US,1682425408
313,ndele,8.4109,20.6473,312.23,24,20,0.91,CF,1682425408
314,keuruu,62.2667,24.7,282.25,91,100,4.1,FI,1682425409
315,minas de marcona,-15.2119,-75.1103,290.03,83,21,3.33,PE,1682425409
316,aldinga beach,-35.2793,138.4604,297.41,54,100,3.68,AU,1682425409
317,arteche,12.2645,125.4048,299.0,84,100,2.29,PH,1682425409
318,luderitz,-26.6481,15.1594,296.86,58,1,7.42,NA,1682425409
319,nogliki,51.8333,143.1667,271.8,86,88,1.86,RU,1682425410
320,iqaluit,63.7506,-68.5145,271.0,100,100,1.03,CA,1682425396
321,bam,29.106,58.357,303.12,13,45,7.28,IR,1682425410
322,debark',13.1561,37.8981,296.29,20,56,3.47,ET,1682425411
323,alajarvi,63.0,23.8167,277.76,94,100,4.55,FI,1682425411
324,lyaskovets,43.1111,25.7283,291.77,67,89,3.09,BG,1682425411
325,kyzyl-suu,42.3414,78.0056,282.4,64,100,2.2,KG,1682425411
326,malindi,-3.2175,40.1191,303.24,70,75,7.72,KE,1682425412
327,sao joao batista,-27.2761,-48.8494,295.91,93,64,0.42,BR,1682425412
328,saint-louis,16.3333,-15.0,310.95,13,18,3.38,SN,1682425412
329,belozersk,60.0326,37.7957,288.7,40,79,4.12,RU,1682425412
330,bamboo flat,11.7,92.7167,302.62,70,54,2.84,IN,1682425412
331,labrador city,52.9463,-66.9114,277.1,60,75,1.03,CA,1682425209
332,norilsk,69.3535,88.2027,275.61,87,41,2.88,RU,1682425413
333,kulhudhuffushi,6.6221,73.07,302.43,68,97,3.31,MV,1682425413
334,quellon,-43.1167,-73.6167,283.29,100,100,0.0,CL,1682425413
335,basarabeasca,46.3311,28.9728,288.61,54,100,6.05,MD,1682425413
336,fenton,42.7978,-83.7049,276.38,80,100,3.09,US,1682425223
337,pyhajarvi,67.0701,27.2176,273.39,94,91,2.87,FI,1682425413
338,qulsary,46.9531,54.0198,299.03,17,100,12.57,KZ,1682425414
339,ordubad,38.9059,46.0234,294.02,45,37,1.69,AZ,1682425414
340,tamanrasset,22.785,5.5228,303.1,9,0,2.06,DZ,1682425414
341,saguenay,48.4168,-71.0657,278.2,83,75,5.14,CA,1682425116
342,sakaiminato,35.55,133.2333,284.14,100,75,2.06,JP,1682425414
343,nizhneangarsk,55.7833,109.55,269.4,73,95,1.87,RU,1682425414
344,waspan,14.7419,-83.9717,295.07,90,52,1.38,NI,1682425415
345,hermanus,-34.4187,19.2345,294.15,68,33,2.24,ZA,1682425415
346,el bayadh,33.6832,1.0193,297.06,19,0,4.47,DZ,1682425415
347,torghay,49.6339,63.4981,295.36,24,63,3.14,KZ,1682425415
348,toliara,-23.35,43.6667,299.03,61,23,8.37,MG,1682425415
349,fortaleza,-3.7227,-38.5247,302.71,74,75,5.66,BR,1682425147
350,isangel,-19.55,169.2667,298.21,88,20,0.0,VU,1682425415
351,ambilobe,-13.2,49.05,303.65,68,23,3.41,MG,1682425416
352,claiborne,32.516,-92.1918,285.16,76,100,2.06,US,1682425416
353,ciudad acuna,29.3232,-100.9522,291.31,88,100,5.66,MX,1682425416
354,kincardine,56.0667,-3.7167,283.86,46,40,1.87,GB,1682425416
355,uttarkashi,30.7333,78.45,295.41,42,85,0.93,IN,1682425416
356,balqash,46.8481,74.995,292.48,20,0,6.0,KZ,1682425416
357,key largo,25.0865,-80.4473,297.58,70,11,4.83,US,1682425143
358,galveston,29.3669,-94.9669,291.51,84,35,5.17,US,1682425416
359,kirishi,59.4471,32.0205,292.86,30,51,4.78,RU,1682425417
360,ihosy,-22.4,46.1167,299.99,34,2,2.3,MG,1682425417
361,joypur hat,25.0943,89.0217,306.01,29,47,0.85,BD,1682425417
362,san juan de miraflores,-12.1629,-76.9635,295.47,87,91,1.44,PE,1682425417
363,siverskiy,59.3544,30.0783,292.17,31,53,4.84,RU,1682425417
364,tralee,52.2704,-9.7026,283.29,50,75,6.69,IE,1682425418
365,nabire,-3.3667,135.4833,299.26,89,78,0.7,ID,1682425418
366,yeppoon,-23.1333,150.7333,294.03,68,20,9.33,AU,1682425418
367,mejit,10.2753,170.8646,300.54,77,98,9.15,MH,1682425419
368,konarka,19.9,86.1167,302.37,72,40,3.63,IN,1682425419
369,ribeira brava,32.65,-17.0667,299.1,69,44,2.0,PT,1682425419
370,beloyarskiy,63.7119,66.6722,273.61,99,100,1.69,RU,1682425419
371,corn island,12.1694,-83.0418,299.57,68,8,3.66,NI,1682425419
372,kralendijk,12.15,-68.2667,301.14,74,20,2.57,BQ,1682425035
373,viitasaari,63.0667,25.8667,276.04,97,100,3.52,FI,1682425419
374,gebeit,21.0667,36.3167,308.11,17,1,5.85,SD,1682425420
375,la'ie,21.6477,-157.9253,296.54,86,43,0.89,US,1682425420
376,kidal,18.4411,1.4078,309.63,7,0,5.23,ML,1682425420
377,galle,6.0367,80.217,301.29,77,99,1.24,LK,1682425420
378,nemuro,43.3236,145.575,276.93,85,63,4.68,JP,1682425420
379,yatou,37.15,122.3833,284.59,63,70,3.6,CN,1682425420
380,askino,56.0901,56.5783,292.95,34,15,4.31,RU,1682425420
381,batticaloa,7.7102,81.6924,302.68,72,94,4.67,LK,1682425421
382,mungyeong,36.5946,128.1995,281.8,94,100,1.23,KR,1682425153
383,sal rei,16.1833,-22.9167,298.26,61,40,7.2,CV,1682425421
384,new norfolk,-42.7826,147.0587,287.99,61,9,1.59,AU,1682425421
385,tolanaro,-25.0319,46.9987,299.19,61,40,7.2,MG,1682425422
386,lauro de freitas,-12.8944,-38.3272,303.16,62,40,4.12,BR,1682425422
387,tabou,4.423,-7.3528,302.06,76,94,3.43,CI,1682425422
388,corralillo,22.9819,-80.5856,297.01,75,58,3.33,CU,1682425422
389,ephraim,39.3597,-111.5863,276.01,67,52,2.58,US,1682425422
390,podporozh'ye,60.9112,34.1706,292.82,30,82,3.49,RU,1682425423
391,creel,27.75,-107.6333,275.3,53,7,2.4,MX,1682425423
392,sisimiut,66.9395,-53.6735,273.91,100,100,2.86,GL,1682425423
393,aksuat,48.7167,83.7,282.14,35,66,7.81,KZ,1682425423
394,sao jose da coroa grande,-8.8978,-35.1478,300.31,77,75,2.68,BR,1682425423
395,sao tome,0.3365,6.7273,300.21,82,98,6.42,ST,1682425424
396,kimbe,-5.5502,150.1429,299.26,87,75,0.87,PG,1682425424
397,jalai nur,49.45,117.7,275.98,26,64,4.42,CN,1682425424
398,santa cruz,-17.8,-63.1667,293.18,88,75,5.66,BO,1682425424
399,constantia,44.1833,28.65,290.76,75,81,8.51,RO,1682425424
400,sandnessjoen,66.0217,12.6316,279.21,42,40,3.6,NO,1682425424
401,kerch,45.3583,36.4758,286.86,70,97,6.45,UA,1682425210
402,el porvenir,13.7617,-87.3458,293.78,90,100,0.74,HN,1682425425
403,guaratingueta,-22.8164,-45.1925,292.15,82,75,2.57,BR,1682425425
404,salym,60.0625,71.4789,283.95,86,100,0.1,RU,1682425425
405,port lincoln,-34.7333,135.8667,293.18,67,86,4.76,AU,1682425425
406,tidjikja,18.5564,-11.4271,309.69,12,0,4.39,MR,1682425425
407,daru,-9.0763,143.2092,300.26,86,99,5.98,PG,1682425425
408,marquette,46.5333,-87.6335,273.34,89,98,1.34,US,1682425426
409,naracoorte,-36.9579,140.7383,291.91,51,100,3.84,AU,1682425426
410,beipiao,41.7919,120.7792,277.84,56,61,5.18,CN,1682425426
411,nakamura,32.9833,132.9333,290.78,97,100,5.1,JP,1682425426
412,ust'-barguzin,53.45,108.9833,270.74,86,93,1.26,RU,1682425426
413,svetlyy,54.675,20.1347,281.18,85,100,3.69,RU,1682425426
414,djougou,9.7085,1.666,310.88,31,54,0.45,BJ,1682425427
415,acarau,-2.8856,-40.12,300.48,79,64,4.77,BR,1682425427
416,ipinda,-9.4833,33.9,299.79,72,38,2.17,TZ,1682425427
417,lerwick,60.1545,-1.1494,279.15,68,71,10.83,GB,1682425427
418,otjimbingwe,-22.35,16.1333,306.28,26,2,4.1,NA,1682425427
419,papao,-17.75,-149.55,298.97,87,69,7.86,PF,1682425427
420,kununurra,-15.7667,128.7333,299.14,83,26,1.54,AU,1682425427
421,llallagua,-18.4167,-66.6333,279.44,27,0,1.38,BO,1682425428
422,le port,-20.9373,55.2919,300.31,96,78,2.24,RE,1682425428
423,palasa,18.7667,84.4167,301.59,73,46,2.56,IN,1682425348
424,ta`u,-14.2336,-169.5144,300.16,75,57,0.42,AS,1682425428
425,esperanza,19.5847,-70.9849,298.32,80,75,2.24,DO,1682425428
426,oyem,1.5995,11.5793,294.27,97,100,1.1,GA,1682425428
427,envira,-7.3,-70.2167,294.61,99,100,0.45,BR,1682425428
428,bodo,67.28,14.405,278.4,37,0,6.17,NO,1682425428
429,happy valley-goose bay,53.3168,-60.3315,278.32,70,20,0.0,CA,1682425428
430,kapit,2.0167,112.9333,298.95,90,100,0.18,MY,1682425429
431,praia da vitoria,38.7333,-27.0667,293.29,73,40,6.17,PT,1682425429
432,jiaojiang,28.6803,121.4428,289.82,93,100,2.44,CN,1682425429
433,andergrove,-21.0833,149.1833,296.29,70,20,8.1,AU,1682425429
434,murun-kuren,49.6342,100.1625,283.79,23,76,1.77,MN,1682425429
435,veliki preslav,43.1667,26.8167,290.7,62,92,1.3,BG,1682425429
436,mana,5.6592,-53.7767,299.44,85,100,2.55,GF,1682425430
437,okha,53.5739,142.9478,270.57,82,18,1.16,RU,1682425430
438,sitka,57.0531,-135.33,275.09,93,100,4.63,US,1682425430
439,holualoa,19.6228,-155.9522,295.06,79,75,2.24,US,1682425324
440,san buenaventura,27.0833,-101.5333,290.64,85,79,0.5,MX,1682425430
441,kerikeri,-35.2268,173.9474,283.66,92,0,2.0,NZ,1682425431
442,kielce,50.8703,20.6275,282.48,59,100,3.13,PL,1682425431
443,bikenibeu village,1.3673,173.1241,300.13,83,75,1.54,KI,1682425431
444,tulun,54.5611,100.5792,276.48,73,100,8.47,RU,1682425431
445,matoury,4.8483,-52.3317,297.13,100,100,1.03,GF,1682425431
446,vryheid,-27.7695,30.7917,301.42,24,55,2.36,ZA,1682425431
447,bor,56.3567,44.0669,291.11,58,86,4.66,RU,1682425432
448,aripuana,-9.1667,-60.6333,296.48,96,98,0.14,BR,1682425432
449,tannum sands,-23.9504,151.3693,295.09,56,40,5.14,AU,1682425432
450,kalinkavichy,52.1323,29.3257,290.96,37,36,5.41,BY,1682425432
451,carrizo springs,28.5219,-99.8606,290.49,100,100,2.22,US,1682425432
452,lazaro cardenas,17.9583,-102.2,296.94,76,95,1.68,MX,1682425432
453,baracoa,20.3467,-74.4958,298.09,78,91,1.51,CU,1682425433
454,waraseoni,21.75,80.0333,296.3,79,80,9.32,IN,1682425433
455,ingeniero jacobacci,-41.3427,-69.5448,283.53,44,99,1.61,AR,1682425433
456,vorkuta,67.5,64.0,268.7,89,41,3.33,RU,1682425433
457,ad dilam,23.9915,47.1627,309.38,16,29,4.8,SA,1682425434
458,nizhniy kuranakh,58.8353,125.4869,268.51,90,100,1.43,RU,1682425434
459,mulvane,37.4745,-97.2439,282.82,84,100,4.63,US,1682425427
460,freetown,8.484,-13.2299,301.95,75,87,4.09,SL,1682425434
461,gulu,2.7746,32.299,290.66,97,100,3.87,UG,1682425434
462,mailsi,29.8003,72.1758,310.02,9,99,4.2,PK,1682425434
463,loreto,22.2667,-101.9667,285.02,21,31,2.84,MX,1682425435
464,hualien city,23.9769,121.6044,296.11,95,98,2.86,TW,1682425435
465,lander,42.833,-108.7307,278.59,92,100,4.63,US,1682425435
466,vatutine,49.015,31.0621,290.59,40,10,4.21,UA,1682425435
467,lepsy,46.235,78.9456,289.28,24,32,8.13,KZ,1682425435
468,hauterive,46.0901,3.4459,287.57,54,100,1.29,FR,1682425436
469,fort mcmurray,56.7268,-111.381,275.92,80,75,4.12,CA,1682425395
470,crucecita,-28.95,-58.9833,289.32,90,39,1.71,AR,1682425436
471,marabba,12.35,32.1833,314.24,15,91,3.66,SD,1682425436
472,kupang,-10.1667,123.5833,301.47,83,75,2.57,ID,1682425436
473,benguela,-12.5763,13.4055,302.48,74,96,3.56,AO,1682425436
474,bonthe,7.5264,-12.505,304.65,64,92,3.52,SL,1682425436
475,pangody,65.85,74.4859,272.01,84,70,4.05,RU,1682425437
476,forbes,-33.3833,148.0167,289.22,60,0,2.75,AU,1682425437
477,plastun,44.7561,136.2939,278.09,72,100,3.37,RU,1682425437
478,geraldton,-28.7667,114.6,288.38,82,40,3.09,AU,1682425437
479,elesbao veloso,-6.2019,-42.1403,301.47,52,49,3.1,BR,1682425437
480,dryden,49.7833,-92.7503,270.31,68,100,2.06,CA,1682425437
481,mount isa,-20.7333,139.5,294.02,60,7,2.57,AU,1682425437
482,naryn,41.4287,75.9911,284.13,49,74,3.15,KG,1682425438
483,atar,20.5169,-13.0499,308.18,21,0,2.06,MR,1682425438
484,hasaki,35.7333,140.8333,288.83,62,100,8.16,JP,1682425438
485,tsaratanana,-16.7833,47.65,304.37,47,0,3.07,MG,1682425438
486,itoman,26.1247,127.6694,295.58,94,75,7.2,JP,1682425438
487,mahanoro,-19.9,48.8,300.42,72,8,5.3,MG,1682425438
488,bafq,31.6128,55.4107,304.55,14,69,9.71,IR,1682425438
489,island harbour,50.724,-1.2758,285.39,53,13,1.34,GB,1682425439
490,guiuan,11.0333,125.7247,300.79,78,65,4.25,PH,1682425439
491,aver-o-mar,41.4078,-8.7812,294.86,72,20,3.09,PT,1682425439
492,seguela,7.9611,-6.6731,308.69,40,76,1.99,CI,1682425439
493,akrehamn,59.2667,5.1833,280.6,57,40,14.4,NO,1682425439
494,jijiang,29.2906,106.2542,290.48,69,66,1.81,CN,1682425440
495,kangding,30.0513,101.9603,279.21,98,100,1.67,CN,1682425440
496,caleta de carquin,-11.0925,-77.6267,296.16,83,93,2.96,PE,1682425440
497,sinabang,2.4803,96.3801,301.17,77,92,3.46,ID,1682425440
498,manta,-0.95,-80.7333,297.03,83,40,1.54,EC,1682425440
499,garh maharaja,30.8339,71.9053,310.84,9,100,2.66,PK,1682425440
500,buckeye,33.3703,-112.5838,294.72,33,40,2.06,US,1682425440
501,trinidad,-14.8333,-64.9,299.14,89,40,0.0,BO,1682425440
502,vila velha,-20.3297,-40.2925,297.12,88,75,2.57,BR,1682425440
503,kingston,17.997,-76.7936,300.68,74,20,1.54,JM,1682425433
504,la sarre,48.8002,-79.1996,271.06,96,100,4.39,CA,1682425441
505,ploudalmezeau,48.5333,-4.65,286.44,67,75,4.63,FR,1682425441
506,conceicao da barra,-18.5933,-39.7322,299.77,70,46,3.44,BR,1682425441
507,tshabong,-26.05,22.45,300.15,36,0,2.58,BW,1682425441
508,tartagal,-22.5164,-63.8013,288.98,90,100,0.5,AR,1682425441
509,ndelele,4.0333,14.9333,303.26,50,100,2.53,CM,1682425441
510,gorontalo,0.5412,123.0595,298.57,94,57,1.07,ID,1682425421
511,matipo,-20.2839,-42.3411,293.4,78,66,1.02,BR,1682425442
512,gemena,3.25,19.7667,310.31,33,9,1.0,CD,1682425442
513,abalak,58.1286,68.5944,292.36,37,15,5.76,RU,1682425442
514,shalkar,47.8288,59.6258,295.55,20,78,8.65,KZ,1682425442
515,salinopolis,-0.6136,-47.3561,300.12,83,100,4.04,BR,1682425443
516,spanaway,47.104,-122.4346,281.73,91,100,2.06,US,1682425181
517,altai,46.3722,96.2583,278.32,54,100,11.69,MN,1682425443
518,leo,11.1,-2.1,312.2,23,33,1.43,BF,1682425443
519,argo,37.6333,22.7333,293.03,29,98,4.77,GR,1682425443
520,belfort,47.6333,6.8667,283.43,81,94,3.92,FR,1682425444
521,tommot,58.9564,126.2925,269.56,93,100,1.21,RU,1682425444
522,baruun-urt,46.6806,113.2792,279.65,23,46,5.65,MN,1682425444
523,la ronge,55.1001,-105.2842,274.29,60,75,4.12,CA,1682425445
524,losone,46.1687,8.7593,293.02,40,20,2.24,CH,1682425445
525,groningen,53.25,6.75,282.61,67,75,7.72,NL,1682425445
526,hinton,53.4001,-117.5857,273.62,95,100,1.83,CA,1682425239
527,ocean shores,46.9737,-124.1563,282.15,79,100,2.57,US,1682425446
528,rimouski,48.4488,-68.524,277.25,78,93,2.21,CA,1682425382
529,nadi,-17.8,177.4167,298.15,88,75,3.09,FJ,1682425446
530,kattivakkam,13.2167,80.3167,305.2,82,67,5.98,IN,1682425446
531,karratha,-20.7377,116.8463,300.51,58,88,5.73,AU,1682425447
532,nema,57.5067,50.5011,293.07,34,53,4.05,RU,1682425447
533,arkhangel'sk,64.5401,40.5433,278.21,56,20,2.0,RU,1682425447
534,eldorado,-23.7869,-54.2836,292.27,90,63,4.9,BR,1682425447
535,rajgarh,28.6333,75.3833,307.63,12,67,3.35,IN,1682425303
536,ungsang-nodongjagu,42.3578,130.4622,279.63,93,100,1.43,KP,1682425447
537,sao vicente,-23.9631,-46.3919,298.3,73,0,1.54,BR,1682425448
538,shimoda,34.6667,138.95,287.65,68,99,7.09,JP,1682425448
539,berezovyy,51.6667,135.7,275.44,87,100,1.26,RU,1682425448
540,kandahar,31.0,65.75,303.03,6,98,3.03,AF,1682425238
541,tutoia,-2.7619,-42.2744,300.15,87,63,3.94,BR,1682425448
542,borjomi,41.8527,43.4128,289.08,55,62,2.99,GE,1682425448
543,paoua,7.2427,16.4406,310.6,26,71,2.2,CF,1682425449
544,maceio,-9.6658,-35.7353,297.84,94,75,2.06,BR,1682425405
545,kourou,5.1552,-52.6478,297.18,88,100,3.11,GF,1682425449
546,kiunga,-6.1219,141.2906,297.39,97,85,0.54,PG,1682425449
547,robertsport,6.7533,-11.3686,302.03,73,49,3.05,LR,1682425449
548,rong'an,26.1247,119.1214,292.27,92,98,0.96,CN,1682425450
549,lubango,-14.9172,13.4925,297.58,55,21,2.52,AO,1682425450
550,rhinelander,45.6366,-89.4121,271.69,80,0,0.0,US,1682425451
551,aksu,41.1231,80.2644,298.21,12,58,0.88,CN,1682425451
552,chaohu,31.6,117.8667,285.52,85,92,2.95,CN,1682425451
553,namanga,-2.5433,36.7905,297.56,63,95,4.21,KE,1682425451
554,figuig (centre),32.1089,-1.2286,301.73,17,0,0.83,MA,1682425451
555,dunedin,-45.8742,170.5036,281.93,73,89,5.36,NZ,1682425264
556,kudahuvadhoo,2.6708,72.8944,302.38,71,100,3.91,MV,1682425452
557,inarajan village,13.2736,144.7484,301.69,92,33,6.91,GU,1682425452
558,wanning,18.8003,110.3967,297.76,91,41,4.03,CN,1682425452
559,sulejow,51.3544,19.8854,283.81,58,100,25.03,PL,1682425452
560,grand baie,-20.0182,57.5802,301.73,77,46,3.15,MU,1682425452
